[
  {
    "id": "16ab4952-27c3-42e1-be5c-4f5e3c6ad68e",
    "name": "Leiby's Garden Shop",
    "type": "Flowers",
    "description": "Leiby's Garden & Flower Shop offers the Weston, MA area superior floral arrangements and assortments. Our deep-rooted passion for flowers, along with our dedication to service, makes us the ideal choice for any occasion!",
    "picture": "http://res.cloudinary.com/ufn/image/upload/c_pad,f_auto,h_449,w_400/yyod4qadndwh5wphpdd4.jpg",
    "amount_off": "$16",
    "phone": "+1 (900) 583-2741",
    "full_address": "430 Boston Post Rd Weston, MA 02493",
    "website": "http://www.leibysgardenandflowershop.com/",
    "city": "Weston",
    "state": "MA",
    "zip_code": "02493",
    "latitude": "42.367016",
    "longitude": "-71.301137"
  },
  {
    "id": "76babbea-8971-4e6e-96a2-edcc36f06870",
    "name": "Land Escapes",
    "type": "Flowers",
    "description": "Create an everyday getaway",
    "picture": "http://www.everydaygetaway.com/land_escapes_rgb.jpg",
    "amount_off": "$10",
    "phone": "+1 (825) 595-2977",
    "full_address": "153 Lexington Road at Rte 2 West Lincoln, MA  01773",
    "website": "http://www.everydaygetaway.com/",
    "city": "Lincoln",
    "state": "MA",
    "zip_code": "01773",
    "latitude": "42.3869257",
    "longitude": "-71.2597545"
  },
  {
    "id": "e8d72137-7877-47b1-b032-0568759efef6",
    "name": "Coppy Penny Flowers",
    "type": "Flowers",
    "description": "We are an award-winning boutique florist in historic Concord",
    "picture": "http://copperpennyflowers.com/cpfwp/wp-content/uploads/2015-logo-retina.png",
    "amount_off": "$20",
    "phone": "+1 (871) 551-2726",
    "full_address": "9 Independence Court Concord, MA 01742",
    "website": "http://www.copperpennyflowers.com/cpfwp/",
    "city": "Concord",
    "state": "MA",
    "zip_code": "02451",
    "latitude": "42.459746",
    "longitude": "-71.349358"
  },
  {
    "id": "f1cea4cf-4d49-43f8-ac9c-f161f8188112",
    "name": "Pet Supplies Plus",
    "type": "Petstore",
    "description": "In 1988, Jack Berry and Harry Shallop came up with the novel idea of opening a supermarket-style pet food and supply store in Redford, Michigan. Nearly 25 years later, Pet Supplies PlusÂ® has over 250 neighborhood locations in 23 states, and continues to grow across the country.",
    "picture": "http://www.petsuppliesplus.com/assets/images/icon.map-marker-a.png",
    "amount_off": "$24.63",
    "phone": "+1 (781) 891-1270",
    "full_address": "1030 Main St #10, Waltham, MA 02451",
    "website": "http://www.petsuppliesplus.com/WALTHAM9064",
    "city": "Waltham",
    "state": "MA",
    "zip_code": "02451",
    "latitude": "42.375598",
    "longitude": "-71.252831"
  },
  {
    "id": "a8b41db6-a233-46bc-9b0d-fb9daadb031b",
    "name": "Petco Animal Supplies",
    "type": "Petstore",
    "description": "Welcome to Petco. Our Waltham MA pet store location offers a wide selection of top quality products to meet the needs of a variety of pets.",
    "picture": "http://rstatic.petco.com/locations/1_11869_Petco-Family-of-Brands-2.jpg",
    "amount_off": "$19.94",
    "phone": "+1 (781) 736-0200",
    "full_address": "75 Linden St, Waltham, MA 02452",
    "website": "http://stores.petco.com/ma/waltham/pet-supplies-waltham-ma-755.html",
    "city": "Waltham",
    "state": "MA",
    "zip_code": "02451",
    "latitude": "42.379282",
    "longitude": "-71.222474"
  },
  {
    "id": "fdf565f9-a256-4930-bebc-cac2f80e50bc",
    "name": "Belmont Pet Shop",
    "type": "Petstore",
    "description": "At Belmont Pet Shop, we work hard to ensure that you have all the resources you need to make a healthy and happy life for your pet.",
    "picture": "http://belmontpetshop.com/wp-content/uploads/header.png",
    "amount_off": "$36.57",
    "phone": "+1 (617) 484-4216",
    "full_address": "17 Flett Rd, Belmont, MA 02478",
    "website": "http://belmontpetshop.com/",
    "city": "Belmont",
    "state": "MA",
    "zip_code": "02451",
    "latitude": "42.384060",
    "longitude": "-71.180635"
  }
]
